{
  "markers": [
    {
      "deal": {
        "category": "ice_cream",
        "label": "10% discount!"
      },
      "latitude": 51.222297,
      "longitude": 4.501967,
      "shoptitle": "Cold Java",
      "formatted_address": "Wagenstraat 21 Antwerpen",
      "image": "../images/ice_cream.jpeg"
    },
    {
      "deal": {
        "category": "coffee",
        "label": "Free upgrade to a Large coffee!"
      },
      "latitude": 51.221629,
      "longitude": 4.500814,
      "shoptitle": "Fresh Java",
      "formatted_address": "Wagenstraat 21 Antwerpen",
      "image": "../images/coffee.jpeg"
    },
    {
      "deal": {
        "category": "barber",
        "label": "Free beard trim!"
      },
      "latitude": 51.222168,
      "longitude": 4.500980,
      "shoptitle": "Cold Java",
      "formatted_address": "Wagenstraat 21 Antwerpen",
      "image": "../images/barber.jpeg"
    },
    {
      "deal": {
        "category": "coffee",
        "label": "Deal spotted!"
      },
      "latitude": 51.222023,
      "longitude": 4.502584,
      "shoptitle": "Fresh Java",
      "formatted_address": "Wagenstraat 21 Antwerpen",
      "image": "../images/coffee.jpeg"
    },
    {
      "deal": {
        "category": "coffee",
        "label": "Deal spotted!"
      },
      "latitude": 51.222418,
      "longitude": 4.500551,
      "shoptitle": "Fresh Java",
      "formatted_address": "Wagenstraat 21 Antwerpen",
      "image": "../images/coffee.jpeg"
    },
    {
      "deal": {
        "category": "coffee",
        "label": "Deal spotted!"
      },
      "latitude": 51.221810,
      "longitude": 4.500398,
      "shoptitle": "Fresh Java",
      "formatted_address": "Wagenstraat 1 Amsterdam",
      "image": "../images/java.jpg"
    },
    {
      "deal": {
        "category": "coffee",
        "label": "Deal spotted!"
      },
      "latitude": 51.222665,
      "longitude": 4.501364,
      "shoptitle": "Fresh Java",
      "formatted_address": "Wagenstraat 21 Antwerpen",
      "image": "../images/coffee.jpeg"
    },
    {
      "deal": {
        "category": "coffee",
        "label": "Deal spotted!"
      },
      "latitude": 52.3909611,
      "longitude": 4.9433656,
      "shoptitle": "Fresh Java",
      "formatted_address": "Wagenstraat 21 Antwerpen",
      "image": "../images/coffee.jpeg"
    },
    {
      "deal": {
        "category": "coffee",
        "label": "Deal spotted!"
      },
      "latitude": 51.222660,
      "longitude": 4.501731,
      "shoptitle": "Fresh Java",
      "formatted_address": "Wagenstraat 21 Antwerpen",
      "image": "../images/coffee.jpeg"
    },
    {
      "deal": {
        "category": "coffee",
        "label": "Deal spotted!"
      },
      "latitude": 51.222969,
      "longitude": 4.502182,
      "shoptitle": "Fresh Java",
      "formatted_address": "Wagenstraat 21 Antwerpen",
      "image": "../images/coffee.jpeg"
    }
  ]
}
